station_id,station_name,catchment_id,catchment_name,stationparameter_no,stationparameter_name,ts_id,ts_name,from,to,station_latitude,station_longitude,river_id,river_name,CATCHMENT_SIZE,GAUGE_DATUM,on_river,has_catchment_size
35952,Kirkton Burn,277167,Forth,SG,Level,52422010,15minute,2003-11-21,2025-06-25,56.36683432,-4.377397065,21075.0,Kirkton Burn,6.85,249.5,True,True
35960,Upper Monachyle,277167,Forth,SG,Level,52463010,15minute,2003-11-26,2025-07-28,56.39271229,-4.463706898,21223.0,Monachyle,2.24,446.0,True,True
35978,Claggan,277154,Loch Linnhe Group,SG,Level,52539010,15minute,1982-10-01,2025-07-28,56.82151065,-5.088839432,21257.0,Nevis,69.2,3.441,True,True
36036,Calderpark,277159,Clyde,SG,Level,52768010,15minute,1978-03-01,2025-07-28,55.83754619,-4.10777909,21271.0,North Calder Water,129.8,12.5,True,True
36090,Glen Orchy,277169,Awe and Etive,SG,Level,52986010,15minute,1978-10-01,2025-07-28,56.44657591,-4.852749436,21287.0,Orchy,251.2,66.7,True,True
36116,Hoodston Bridge,277165,Irvine and Ayr,SG,Level,53093010,15minute,2000-02-07,2025-07-28,55.60122684,-4.428249956,20775.0,Cessnock Water,76.2,36.005,True,True
36032,Bridgend,277159,Clyde,SG,Level,52752010,15minute,1973-06-01,2025-07-28,55.94910632,-4.129006198,21055.0,Kelvin,63.7,34.478,True,True
36044,Catrine,277165,Irvine and Ayr,SG,Level,52800010,15minute,1970-10-01,2025-07-28,55.50462561,-4.336590474,20647.0,Ayr,166.3,86.66,True,True
36082,Fairholm,277159,Clyde,SG,Level,52954010,15minute,1978-03-07,2025-07-28,55.74419908,-3.986819701,20641.0,Avon Water,265.5,53.916,True,True
36086,Gaidrew,277163,Leven (Durnbartonshire),SG,Level,52970010,15minute,1978-01-01,2025-07-28,56.04809931,-4.434505213,20903.0,Endrick Water,219.9,9.455,True,True
36104,Happendon,277159,Clyde,SG,Level,53044010,15minute,1989-09-14,2025-07-28,55.5801981,-3.816796943,20849.0,Douglas Water,97.0,182.967,True,True
36128,Kilwinning,277165,Irvine and Ayr,SG,Level,53142010,15minute,1978-01-01,2025-07-27,55.64563956,-4.692060096,20969.0,Garnock,183.8,3.643,True,True
35982,Caulkerbush,277161,Dee (Galloway),SG,Level,52555010,15minute,2002-05-20,2020-03-03,54.89874408,-3.672536736,21369.0,Southwick Burn,26.0,16.1,True,True
36008,Auchendrane,277171,Doon Group,SG,Level,52656010,15minute,1978-03-01,2025-07-28,55.40997977,-4.627054661,20843.0,Doon,323.8,22.262,True,True
36020,Barnaline Lodge,277169,Awe and Etive,SG,Level,52704010,15minute,1980-08-01,2025-07-28,56.27473893,-5.278048706,20635.0,Avich,32.1,49.3,True,True
36074,Eas Daimh,277169,Awe and Etive,SG,Level,52922010,15minute,1981-08-01,2025-07-28,56.40771881,-4.855886468,20879.0,Eas Daimh,4.5,183.6,True,True
35500,Perth,277175,Tay,SG,Level,51453010,15minute,1991-08-28,2025-07-28,56.41191473,-3.434206313,21397.0,Tay,4991.0,2.08,True,True
35684,Lochindorb Level,277148,Findhorn Group,SG,Level,51846010,15minute,2007-03-05,2025-07-28,57.39798722,-3.714675739,21167.0,Lochindorb,28.9,294.659,True,True
35986,Dalry,277165,Irvine and Ayr,SG,Level,52571010,15minute,2014-11-21,2025-07-28,55.70198453,-4.716787117,20969.0,Garnock,88.8,19.349,True,True
36000,Kirkfieldbank,277159,Clyde,SG,Level,52631010,15minute,2007-12-13,2020-09-18,55.67631471,-3.803247871,20779.0,Clyde,957.41,92.833,True,True
36024,Blairston,277159,Clyde,SG,Level,52720010,15minute,1955-09-30,2025-07-28,55.79734306,-4.068305537,20779.0,Clyde,1704.2,17.6,True,True
36048,Condorrat,277159,Clyde,SG,Level,52816010,15minute,1978-01-01,2025-07-28,55.92951508,-4.019603678,21183.0,Luggie Water,33.9,67.503,True,True
36056,Daldowie,277159,Clyde,SG,Level,52849010,15minute,1977-10-01,2025-07-28,55.82998694,-4.121948322,20779.0,Clyde,1903.1,7.477,True,True
36060,Dippen,277157,Kintyre Group,SG,Level,52874010,15minute,1995-05-01,2025-07-28,55.58274848,-5.496523588,20761.0,Carradale Water,58.5,3.1,True,True
36124,Killermont,277159,Clyde,SG,Level,53125010,15minute,1946-10-18,2025-07-28,55.90623638,-4.307622592,21055.0,Kelvin,335.1,27.6,True,True
36016,Balnowlart,277171,Doon Group,SG,Level,52688010,15minute,1978-03-01,2025-07-28,55.10717871,-4.968322113,21379.0,Stinchar,341.0,6.731,True,True
36028,Braevallich,277169,Awe and Etive,SG,Level,52736010,15minute,1981-10-01,2023-10-01,56.21639554,-5.296246434,20565.0,Abhainn a Bhealaich,24.1,41.4,True,True
36070,Dryfield,277159,Clyde,SG,Level,52906010,15minute,1978-05-02,2025-07-28,55.93891825,-4.182216743,21055.0,Kelvin,235.4,31.404,True,True
36052,Craigend,277159,Clyde,SG,Level,52833010,15minute,1978-03-07,2025-07-28,55.86450249,-4.534803989,21013.0,Gryfe,71.0,11.243,True,True
36094,Glen Strae,277169,Awe and Etive,SG,Level,53011010,15minute,1978-11-01,2025-07-28,56.42522107,-5.000795867,21383.0,Strae,36.2,46.8,True,True
36100,Glenfalloch,277163,Leven (Durnbartonshire),SG,Level,53027010,15minute,1978-03-01,2025-07-28,56.33773623,-4.717635246,20923.0,Falloch,80.3,9.381,True,True
36112,Hazelbank,277159,Clyde,SG,Level,53077010,15minute,1955-10-05,2025-07-28,55.68735585,-3.854153414,20779.0,Clyde,1092.9,51.8256,True,True
35966,Weisdale Mill,277193,Shetlands,SG,Level,52488010,15minute,2002-04-17,2025-07-28,60.2593269,-1.288604022,21471.0,Weisdale Burn,12.6,5.371,True,True
36012,Auchengeich,277159,Clyde,SG,Level,52672010,15minute,1972-09-01,2025-07-28,55.91939055,-4.114140851,20711.0,Bothlin Burn,35.7,54.76,True,True
36040,Candermill,277159,Clyde,SG,Level,52784010,15minute,1978-02-01,2025-07-28,55.70088757,-3.966908369,20757.0,Cander Water,24.5,111.5187,True,True
36066,Dreghorn,277165,Irvine and Ayr,SG,Level,52890010,15minute,1980-10-01,2025-07-28,55.61141199,-4.619377401,20611.0,Annick Water,90.6,9.448,True,True
36078,Eglinton Castle,277165,Irvine and Ayr,SG,Level,52938010,15minute,1977-11-01,2025-07-28,55.64280886,-4.677656958,21185.0,Lugton Water,54.6,6.492,True,True
36108,Hawkhead,277159,Clyde,SG,Level,53060010,15minute,1978-03-07,2025-07-28,55.83606531,-4.398537371,21477.0,White Cart Water,234.9,5.056,True,True
36172,Milngavie,277159,Clyde,SG,Level,53311010,15minute,1978-03-01,2025-07-27,55.93341456,-4.309062631,20583.0,Allander Water,32.8,33.5356,True,True
36190,Overlee,277159,Clyde,SG,Level,53384010,15minute,1981-01-01,2025-07-28,55.78987786,-4.266853356,21477.0,White Cart Water,106.4,45.84,True,True
36228,Victoria Bridge,277169,Awe and Etive,SG,Level,53537010,15minute,1981-10-01,2025-07-28,56.53983375,-4.813560642,21121.0,Linne nam Beathach,50.5,168.2,True,True
36466,Bridge of Allan,277167,Forth,SG,Level,54528010,15minute,1992-06-21,2025-07-28,56.15901974,-3.956367475,20581.0,Allan Water,210.0,11.15,True,True
36474,Glenochil,277167,Forth,SG,Level,54570010,15minute,1992-06-21,2021-11-04,56.14364525,-3.839304837,20827.0,Devon,181.0,5.5,True,True
36586,Dalhousie Bridge,277176,Esk Group,SG,Level,55027010,15minute,1984-12-31,2025-07-28,56.8021744,-2.67047775,21475.0,West Water,127.0,49.2,True,True
36678,Auchnafree,277175,Tay,SG,Level,55408010,15minute,1995-04-26,2025-07-28,56.47302976,-3.904678161,20603.0,Almond (Tayside),54.4,265.7,True,True
36688,Almondbank,277175,Tay,SG,Level,55440010,15minute,1990-12-11,2025-07-28,56.41527516,-3.51359839,20603.0,Almond (Tayside),174.8,20.4,True,True
36168,Milliken Park,277159,Clyde,SG,Level,53295010,15minute,1978-03-01,2025-07-27,55.82523457,-4.537788828,20685.0,Black Cart Water,103.1,24.819,True,True
36180,Monyquil Farm,277157,Kintyre Group,SG,Level,53352010,15minute,1999-03-11,2022-02-20,55.56419458,-5.271931931,21199.0,Machrie Water,22.3,80.0,True,True
36450,Bonnybridge,277174,Firth of Forth Group,SG,Level,54464010,15minute,1992-06-17,2025-07-28,56.00182143,-3.886990553,20707.0,Bonny Water,50.5,22.98,True,True
36578,Kirkton Mill,277176,Esk Group,SG,Level,54995010,15minute,1991-01-01,2025-07-28,56.63544717,-2.564584008,21189.0,Lunan Water,124.0,8.6,True,True
36664,Moar,277175,Tay,SG,Level,55351010,15minute,1990-11-27,2025-07-28,56.57276553,-4.388958153,21197.0,Lyon,161.4,244.3,True,True
36670,Camusvrachan,277175,Tay,SG,Level,55367010,15minute,1991-10-25,2025-07-28,56.60039168,-4.250199477,21197.0,Lyon,237.0,184.6,True,True
36698,Craighall (Perth),277175,Tay,SG,Level,55481010,15minute,1990-11-15,2025-07-28,56.60905796,-3.347175751,20907.0,Ericht,432.0,76.2,True,True
36706,Marble Lodge,277175,Tay,SG,Level,55513010,15minute,1991-08-15,2025-07-28,56.82242289,-3.816539353,21409.0,Tilt,165.0,237.6,True,True
36730,Aberuchill,277178,Earn,SG,Level,55612010,15minute,1991-08-29,2025-07-28,56.37078118,-4.019153819,20875.0,Earn,176.9,62.7,True,True
36140,Lennox Castle,277159,Clyde,SG,Level,53190010,15minute,1997-11-14,2025-07-28,55.98029455,-4.220982816,20991.0,Glazert Water,31.03,68.275,True,True
36152,Linnbrane,277163,Leven (Durnbartonshire),SG,Level,53231010,15minute,1978-03-07,2025-07-28,55.98877125,-4.57598193,21107.0,Leven (Loch Lomond),784.3,5.264,True,True
36202,Robstone,277171,Doon Group,SG,Level,53432010,15minute,1976-04-01,2025-07-27,55.25880544,-4.807721027,21457.0,Water of Girvan,245.5,9.128,True,True
36438,Newliston,277172,Tyne (Lothian),SG,Level,54416010,15minute,1997-06-09,2025-07-28,55.9429625,-3.420216359,20729.0,Brox Burn (East Lothian),34.1,35.66,True,True
36462,Anie,277167,Forth,SG,Level,54512010,15minute,1992-06-21,2025-07-28,56.25788155,-4.285414699,21103.0,Leny,190.0,120.2,True,True
36470,Kinbuck,277167,Forth,SG,Level,54545010,15minute,1992-06-21,2025-07-28,56.2255551,-3.949530685,20581.0,Allan Water,161.0,92.99,True,True
36480,Gargunnock,277167,Forth,SG,Level,54595010,15minute,1992-06-21,2025-07-28,56.13266077,-4.070571402,20955.0,Forth,397.0,3.75,True,True
36486,Balfour Mains,277174,Firth of Forth Group,SG,Level,54611010,15minute,1992-06-21,2025-07-28,56.1847332,-3.08157055,21291.0,Ore,162.0,22.97,True,True
36546,Prosen Bridge,277176,Esk Group,SG,Level,54865010,15minute,1984-11-22,2025-07-28,56.71469976,-2.988763564,21315.0,Prosen Water,104.0,109.3,True,True
36600,Luther Bridge,277176,Esk Group,SG,Level,55084010,15minute,1982-12-30,2025-07-28,56.7936908,-2.55997015,21193.0,Luther Water,138.0,25.5,True,True
36604,Kemback,277177,Firth of Tay Group,SG,Level,55100010,15minute,1991-01-01,2025-07-28,56.3309034,-2.948442952,20895.0,Eden (Fife),307.4,6.58,True,True
36616,Killin,277175,Tay,SG,Level,55157010,15minute,1990-10-25,2025-07-28,56.45816211,-4.331876561,20837.0,Dochart,239.0,129.8,True,True
36710,Dalnamein,277175,Tay,SG,Level,55538010,15minute,1990-11-21,2025-07-28,56.79925858,-4.053453634,20973.0,Garry (Tayside),187.2,255.6,True,True
36156,Luss,277163,Leven (Durnbartonshire),SG,Level,53247010,15minute,1978-03-01,2025-07-27,56.10033657,-4.644123033,21191.0,Luss Water,35.3,12.621,True,True
36186,Newmilns,277165,Irvine and Ayr,SG,Level,53368010,15minute,1976-09-01,2025-07-28,55.60610732,-4.331033075,21037.0,Irvine,72.8,61.302,True,True
36194,Oxgang,277159,Clyde,SG,Level,53400010,15minute,1978-03-01,2025-07-28,55.9354055,-4.13808503,21183.0,Luggie Water,87.7,38.147,True,True
36216,Sills of Clyde,277159,Clyde,SG,Level,53489010,15minute,1978-03-01,2025-07-28,55.66312399,-3.70505823,20779.0,Clyde,741.8,183.253,True,True
36442,Turnhouse,277173,Almond Group,SG,Level,54432010,15minute,1983-06-28,2025-07-27,55.94528452,-3.345442654,20995.0,Gogar Burn,38.8,32.108,True,True
36516,Elrig,277167,Forth,SG,Level,54734010,15minute,1992-10-01,2025-07-03,56.15679797,-4.46563232,21131.0,Loch Ard Burn,1.5,80.0,True,True
36524,Castlehill Reservoir,277167,Forth,SG,Level,54766010,15minute,1992-09-01,2025-07-28,56.2092222,-3.60889654,20827.0,Devon,66.0,202.7,True,True
36550,Gella Bridge,277176,Esk Group,SG,Level,54890010,15minute,1992-01-01,2025-07-28,56.77535832,-3.027929218,21359.0,South Esk (Angus),130.0,213.63,True,True
36596,Logie Mill,277176,Esk Group,SG,Level,55068010,15minute,1990-12-11,2025-07-28,56.7668773,-2.493365398,21277.0,North Esk (Tayside),732.0,10.6,True,True
36634,Balmacneil,277175,Tay,SG,Level,55221010,15minute,1990-12-14,2025-07-28,56.63825013,-3.664198017,21397.0,Tay,2897.0,58.6,True,True
36638,Luncarty,277175,Tay,SG,Level,55237010,15minute,1990-12-24,2025-05-19,56.46394135,-3.477636063,21289.0,Ordie Burn,54.0,23.8,True,True
36132,Kirkmuirhill,277159,Clyde,SG,Level,53158010,15minute,1978-03-01,2025-07-27,55.66506695,-3.893674093,21253.0,Nethan,66.0,121.776,True,True
36136,Langholm A,277165,Irvine and Ayr,SG,Level,53174010,15minute,1978-03-01,2025-07-28,55.46679973,-4.362070221,21181.0,Lugar Water,181.0,80.521,True,True
36198,Redlees,277159,Clyde,SG,Level,53416010,15minute,1978-02-01,2025-07-28,55.81909284,-4.108983791,21321.0,Rotten Calder Water,51.3,14.553,True,True
36224,Tulliford Mill,277159,Clyde,SG,Level,53521010,15minute,1969-01-01,2025-07-28,55.64374172,-3.75902119,20779.0,Clyde,932.6,173.738,True,True
36262,Barsolus,277164,Cree,SG,Level,53706010,15minute,1988-01-01,2025-07-28,54.8658531,-4.951330607,21309.0,Piltanton Burn,34.2,6.007,True,True
36270,Braidlie,277180,Esk (Dumfriesshire),SG,Level,53747010,15minute,1992-01-01,2025-07-28,55.26142915,-2.824951121,21021.0,Hermitage Water,20.0,183.0,True,True
36432,Whitburn,277173,Almond Group,SG,Level,54400010,15minute,1992-10-01,2025-07-28,55.87157334,-3.682936938,20601.0,Almond (Lothian),30.3,156.27,True,True
36556,Brechin,277176,Esk Group,SG,Level,54906010,15minute,1982-09-20,2025-07-28,56.72692276,-2.655900389,21359.0,South Esk (Angus),488.0,18.0,True,True
36630,Ballathie,277175,Tay,SG,Level,55205010,15minute,1952-10-17,2025-07-28,56.5144141,-3.386963945,21397.0,Tay,4587.1,26.2,True,True
36650,Dean Bridge,277175,Tay,SG,Level,55285010,15minute,1989-07-13,2025-07-28,56.5988796,-3.153071161,20819.0,Dean Water,230.0,42.5,True,True
36692,Kindrogan,277175,Tay,SG,Level,55465010,15minute,1991-01-01,2025-07-28,56.74926972,-3.544931301,20619.0,Ardle,103.0,248.2,True,True
36720,Auchinner,277178,Earn,SG,Level,55579010,15minute,1991-09-09,2025-07-12,56.31678388,-4.112254665,20593.0,Allt Srath a Ghlinne,15.8,202.1,True,True
36144,Letham,277159,Clyde,SG,Level,53206010,15minute,1991-02-19,2025-07-27,55.76643914,-4.284272139,20877.0,Earn Water,19.8,93.19,True,True
36160,Maidencots,277159,Clyde,SG,Level,53263010,15minute,1978-03-02,2025-07-27,55.51579546,-3.695370189,20865.0,Duneaton Water,110.3,224.82,True,True
36446,Polmonthill,277174,Firth of Forth Group,SG,Level,54448010,15minute,1992-06-17,2025-07-27,55.99837265,-3.681998769,20637.0,Avon (Forth Valley),195.3,4.27,True,True
36458,Bridge of Teith,277167,Forth,SG,Level,54496010,15minute,1992-06-21,2025-07-28,56.18573476,-4.055574525,21399.0,Teith,517.7,14.84,True,True
36494,Bannockburn,277167,Forth,SG,Level,54652010,15minute,1992-10-01,2025-07-28,56.09528478,-3.911816854,20663.0,Bannock Burn,23.7,12.42,True,True
36520,Milton,277167,Forth,SG,Level,54750010,15minute,1992-10-01,2020-10-28,56.18112306,-4.412580797,20643.0,Avondhu Burn,70.2,20.49,True,True
36528,Nungate,277172,Tyne (Lothian),SG,Level,54782010,15minute,1994-01-01,2025-07-28,55.95402395,-2.771735305,21433.0,Tyne,271.0,40.788,True,True
36536,Damleys Cottage,277174,Firth of Forth Group,SG,Level,54814010,15minute,1994-08-01,2025-07-28,56.22128534,-3.361631179,21003.0,Greens Burn,10.5,110.98,True,True
36608,St Michaels,277177,Firth of Tay Group,SG,Level,55116010,15minute,1991-01-01,2025-07-28,56.3903691,-2.908114188,21239.0,Motray Water,60.0,11.4,True,True
36622,Pitnacree,277175,Tay,SG,Level,55173010,15minute,1991-01-01,2025-07-28,56.66006824,-3.756901303,21397.0,Tay,1149.4,60.7,True,True
36626,Caputh,277175,Tay,SG,Level,55189010,15minute,1991-01-01,2025-07-28,56.53919737,-3.492942476,21397.0,Tay,3210.0,35.6,True,True
36658,Forter,277175,Tay,SG,Level,55326010,15minute,1991-08-13,2025-07-28,56.76674681,-3.332205729,21041.0,Isla (Tayside),70.7,285.4,True,True
36674,Comrie Bridge,277175,Tay,SG,Level,55383010,15minute,1991-01-01,2025-07-28,56.61422921,-3.980864711,21197.0,Lyon,391.1,92.1,True,True
36716,Pitlochry,277175,Tay,SG,Level,55554010,15minute,1990-11-23,2025-07-28,56.69656771,-3.720794881,21429.0,Tummel,1670.0,74.0,True,True
36176,Milton of Campsie,277159,Clyde,SG,Level,53327010,15minute,1978-03-07,2025-07-28,55.95994689,-4.153697207,20991.0,Glazert Water,51.9,38.65,True,True
36206,Ross Priory,277163,Leven (Durnbartonshire),SG,Level,53457010,15minute,1978-03-01,2025-07-28,56.05257642,-4.55746111,21147.0,Loch Lomond,767.9,0.0,True,True
36258,Airyhemming,277164,Cree,SG,Level,53690010,15minute,1988-01-01,2025-07-28,54.90049986,-4.839842855,21461.0,Water of Luce,171.0,19.108,True,True
36266,Beattock,277158,Annan,SG,Level,53722010,15minute,1993-07-01,2025-07-28,55.31167269,-3.456710814,20915.0,Evan Water,81.2,1.0,True,True
36490,Fauld Mill,277167,Forth,SG,Level,54627010,15minute,1992-09-01,2021-11-10,56.11140757,-3.748668124,,,56.2,9.2,False,True
36506,Kinross,277174,Firth of Forth Group,SG,Level,54693010,15minute,1992-09-18,2025-07-28,56.19853589,-3.422943515,21365.0,South Queich,33.6,108.214,True,True
36510,Duchray,277167,Forth,SG,Level,54718010,15minute,1992-10-01,2025-07-28,56.15649685,-4.468109175,21131.0,Loch Ard Burn,0.9,80.0,True,True
36532,Callander,277167,Forth,SG,Level,54798010,15minute,1970-06-26,2025-07-28,56.2422863,-4.214924958,21399.0,Teith,409.6,66.67,True,True
36560,Tannadice,277176,Esk Group,SG,Level,54922010,15minute,1995-05-12,2025-07-28,56.7088965,-2.857771833,21359.0,South Esk (Angus),348.0,54.776,True,True
36574,Arbroath,277176,Esk Group,SG,Level,54979010,15minute,1990-10-04,2025-07-28,56.56723031,-2.588171626,20727.0,Brothock Water,50.0,6.2,True,True
36582,Guthrie,277176,Esk Group,SG,Level,55011010,15minute,1994-02-03,2025-07-28,56.64274771,-2.706028939,21189.0,Lunan Water,34.7,51.5,True,True
36590,Invermark,277176,Esk Group,SG,Level,55052010,15minute,1994-10-27,2025-07-28,56.91121364,-2.914811966,21463.0,Water of Mark,49.7,254.3,True,True
36642,Wester Cardean,277175,Tay,SG,Level,55253010,15minute,1991-01-01,2025-07-28,56.60590455,-3.151232647,21041.0,Isla (Tayside),366.5,36.214,True,True
36684,Newton Bridge,277175,Tay,SG,Level,55424010,15minute,1991-01-01,2025-07-28,56.4611514,-3.799234379,20603.0,Almond (Tayside),84.0,210.7,True,True
36726,Cultybraggan,277178,Earn,SG,Level,55595010,15minute,1991-01-01,2025-07-28,56.35972783,-4.001442447,21323.0,Ruchill Water,99.5,62.3,True,True
36734,Dalginross,277178,Earn,SG,Level,55628010,15minute,1992-09-16,2025-07-28,56.37511953,-3.978605821,20875.0,Earn,350.0,52.15,True,True
36738,Kinkell Bridge,277178,Earn,SG,Level,55653010,15minute,1990-08-19,2025-07-28,56.33018709,-3.726992915,20875.0,Earn,590.5,15.3,True,True
36164,Mainholm,277165,Irvine and Ayr,SG,Level,53279010,15minute,1978-03-01,2025-07-27,55.46104476,-4.592546164,20647.0,Ayr,574.0,2.881,True,True
36212,Shewalton,277165,Irvine and Ayr,SG,Level,53473010,15minute,1978-03-01,2025-07-27,55.59709275,-4.627788758,21037.0,Irvine,380.7,4.26,True,True
36220,Spiers Bridge,277159,Clyde,SG,Level,53505010,15minute,1991-04-16,2025-07-27,55.80186787,-4.32218584,20633.0,Auldhouse Burn,17.2,33.134,True,True
36232,Waterside,277159,Clyde,SG,Level,53553010,15minute,1991-02-19,2025-07-28,55.77868352,-4.240656047,21079.0,Kittoch Water,16.8,96.492,True,True
36236,Wellwood,277165,Irvine and Ayr,SG,Level,53569010,15minute,1991-10-09,2025-07-28,55.5109582,-4.123670365,20647.0,Ayr,60.0,191.762,True,True
36428,Colinton,277173,Almond Group,SG,Level,54375010,15minute,1993-03-01,2025-07-28,55.90575791,-3.262141625,21459.0,Water of Leith,72.0,93.064,True,True
36454,Headswood,277174,Firth of Forth Group,SG,Level,54480010,15minute,1992-06-21,2025-07-28,56.01500087,-3.875456793,20765.0,Carron (Forth Valley),122.3,17.85,True,True
36500,Lathro,277174,Firth of Forth Group,SG,Level,54677010,15minute,1992-09-18,2025-07-28,56.2213192,-3.42872292,21281.0,North Queich,23.1,114.07,True,True
36568,Colliston,277176,Esk Group,SG,Level,54963010,15minute,1993-10-08,2025-07-28,56.61000991,-2.637841019,20785.0,Colliston Burn,8.4,30.571,True,True
36654,Balbrogie,277175,Tay,SG,Level,55301010,15minute,1994-11-10,2025-07-28,56.57225831,-3.240802881,21041.0,Isla (Tayside),678.2,31.812,True,True
36778,Cademuir,277179,Tweed,SG,Level,55806010,15minute,1986-01-01,2025-07-28,55.61926614,-3.244232636,21201.0,Manor Water,61.6,196.497,True,True
36810,Lindean,277179,Tweed,SG,Level,55936010,15minute,1961-09-29,2025-07-28,55.57486097,-2.816174621,20913.0,Ettrick Water,499.0,99.2357,True,True
36814,Fountainhall,277179,Tweed,SG,Level,55952010,15minute,2001-08-01,2025-07-28,55.73663595,-2.905930746,20965.0,Gala Water,104.04,205.943,True,True
37128,Balnafoich,277148,Findhorn Group,SG,Level,56728010,15minute,1993-06-01,2025-07-28,57.38787077,-4.188250573,21247.0,Nairn,128.1,174.907,True,True
37144,Alness,277156,Conon Group,SG,Level,56795010,15minute,1973-06-07,2025-07-28,57.69601068,-4.258760757,20605.0,Alness,201.0,11.95,True,True
37188,Bridge of Oich,277153,Ness,SG,Level,56973010,15minute,1990-12-13,2020-06-25,57.09229844,-4.74425988,21155.0,Loch Oich,439.0,31.589,True,True
37196,Bruachrobie,277182,Helmsdale Group,SG,Level,57006010,15minute,1993-05-01,2025-07-28,58.0105569,-3.877565412,20725.0,Brora,434.4,7.91,True,True
37236,Creed Bridge,277183,Outer Hebrides,SG,Level,57199010,15minute,1998-02-25,2025-07-28,58.20454028,-6.424227928,20803.0,Creed,43.4,37.173,True,True
37252,Delnashaugh,277150,Spey,SG,Level,57265010,15minute,1952-10-16,2025-07-27,57.39970792,-3.357845061,20639.0,Avon (Spey),542.8,149.521,True,True
36748,Forteviot Bridge,277178,Earn,SG,Level,55685010,15minute,1991-01-01,2025-07-28,56.34759942,-3.548359476,20875.0,Earn,782.2,8.0,True,True
36760,Lyne Ford,277179,Tweed,SG,Level,55733010,15minute,1986-01-01,2025-07-28,55.64466586,-3.263056512,21431.0,Tweed,373.0,167.173,True,True
36774,March Street,277179,Tweed,SG,Level,55790010,15minute,2005-07-15,2025-07-28,55.6553291,-3.19057537,20889.0,Eddleston Water,60.69,160.1692,True,True
36786,Innerleithen,277179,Tweed,SG,Level,55838010,15minute,2003-02-13,2025-07-28,55.61992749,-3.061056074,21101.0,Leithen Water,57.6,144.1231,True,True
36842,Jedburgh,277179,Tweed,SG,Level,56073010,15minute,1986-01-01,2025-07-28,55.48529122,-2.54668704,21049.0,Jed Water,139.0,65.5274,True,True
37132,Aberlour,277150,Spey,SG,Level,56754010,15minute,1991-04-01,2025-07-28,57.48021805,-3.205975095,21371.0,Spey,2654.7,78.587,True,True
37138,Allnabad,277189,Naver group,SG,Level,56779010,15minute,1987-12-01,2025-07-28,58.34717676,-4.644621014,21385.0,Strathmore,105.0,21.893,True,True
37152,Arcan Spillway,277156,Conon Group,SG,Level,56827010,15minute,1991-12-01,2025-07-28,57.55332889,-4.550906092,20791.0,Conon,625.1,9.65,True,True
37160,Ariundle,277181,Loch Sheil Group,SG,Level,56859010,15minute,2000-05-17,2025-07-28,56.70722202,-5.556782552,21389.0,Strontian,24.6,10.8,True,True
37164,Avochie,277168,Deveron Group,SG,Level,56884010,15minute,1959-11-04,2025-07-28,57.50564634,-2.782377895,20825.0,Deveron,441.6,82.064,True,True
37178,Boat of Garten,277150,Spey,SG,Level,56932010,15minute,1988-01-01,2025-07-28,57.25078305,-3.746867237,21371.0,Spey,1267.8,197.217,True,True
37206,Camisky,277152,Lochy (Invernesshire),SG,Level,57047010,15minute,1979-03-23,2025-07-28,56.87846936,-5.046521526,21173.0,Lochy (Lochaber),1252.0,13.032,True,True
37286,Fasnakyle,277155,Beauly,SG,Level,57395010,15minute,1990-12-01,2025-07-28,57.31811088,-4.799267396,20989.0,Glass,277.5,74.008,True,True
37294,Firhall,277148,Findhorn Group,SG,Level,57427010,15minute,1978-11-13,2025-07-28,57.57160708,-3.869783835,21247.0,Nairn,313.0,7.157,True,True
36770,Shiplaw,277179,Tweed,SG,Level,55774010,15minute,2001-09-19,2025-07-28,55.72796917,-3.207291434,20889.0,Eddleston Water,38.0,204.5222,True,True
36804,Brockhoperig,277179,Tweed,SG,Level,55920010,15minute,1986-01-01,2025-07-28,55.4061286,-3.211513384,20913.0,Ettrick Water,37.5,259.424,True,True
36818,Lauder (New Mills),277179,Tweed,SG,Level,55968010,15minute,2001-08-01,2025-07-28,55.73932168,-2.755976423,21095.0,Leader Water,50.25,167.968,True,True
36830,Hawick,277179,Tweed,SG,Level,56016010,15minute,1986-01-01,2025-07-28,55.43447121,-2.756965079,21405.0,Teviot,323.0,89.699,True,True
36838,Chesters,277179,Tweed,SG,Level,56048010,15minute,1990-08-01,2025-07-28,55.37862961,-2.589607681,21049.0,Jed Water,41.72,182.791,True,True
37200,Cabrach,277168,Deveron Group,SG,Level,57031010,15minute,1990-01-29,2025-07-28,57.34816,-3.034565786,20591.0,Allt Deveron,67.0,287.67,True,True
37268,Dunphail,277148,Findhorn Group,SG,Level,57322010,15minute,1982-11-19,2025-07-28,57.51151031,-3.661788536,20835.0,Divie,165.0,117.28,True,True
36782,Peebles,277179,Tweed,SG,Level,55822010,15minute,1948-08-09,2025-07-28,55.64758358,-3.180313467,21431.0,Tweed,694.0,154.5765,True,True
36874,Mouthbridge,277179,Tweed,SG,Level,56203010,15minute,1986-01-01,2025-07-28,55.77012815,-2.279193263,20691.0,Blackadder Water,159.0,56.695,True,True
37174,Boat o  Brig,277150,Spey,SG,Level,56916010,15minute,1952-12-28,2025-07-28,57.55104115,-3.140387991,21371.0,Spey,2861.2,43.009,True,True
37222,Conon Bridge,277156,Conon Group,SG,Level,57123010,15minute,1986-02-01,2025-07-28,57.5694305,-4.440534753,20791.0,Conon,1168.0,0.07,True,True
36800,Deephope,277179,Tweed,SG,Level,55895010,15minute,1986-01-01,2025-07-28,55.41241422,-3.141967218,21411.0,Tima Water,31.0,232.467,True,True
36854,Sprouston,277179,Tweed,SG,Level,56114010,15minute,1969-05-28,2025-07-28,55.61103047,-2.395690658,21431.0,Tweed,3330.0,24.4497,True,True
36862,Grantshouse,277179,Tweed,SG,Level,56146010,15minute,2003-09-16,2025-07-28,55.88238352,-2.292035856,20921.0,Eye Water,39.5,106.6825,True,True
37242,Culfork,277185,Don (Aberdeenshire),SG,Level,57215010,15minute,1997-08-08,2025-07-28,57.18022427,-3.11016313,20841.0,Don,103.4,308.7,True,True
37278,Easter Turnaig,277188,Shin Group,SG,Level,57363010,15minute,1977-11-11,2025-07-28,57.96185041,-4.700859639,21295.0,Oykel,330.7,15.62,True,True
37282,Ellon,277149,Ythan Group,SG,Level,57379010,15minute,1983-05-18,2025-07-28,57.36377128,-2.090017282,21491.0,Ythan,523.0,3.81,True,True
36764,Lyne Station,277179,Tweed,SG,Level,55758010,15minute,1986-01-01,2025-07-28,55.64733183,-3.25808918,21195.0,Lyne Water,175.0,168.145,True,True
36822,Earlston,277179,Tweed,SG,Level,55984010,15minute,1986-01-01,2025-07-28,55.64075254,-2.691879301,21095.0,Leader Water,239.0,102.898,True,True
36834,Ancrum,277179,Tweed,SG,Level,56032010,15minute,1986-01-01,2025-07-28,55.51244139,-2.580776051,20577.0,Ale Water,174.0,61.2011,True,True
36858,Coldstream,277179,Tweed,SG,Level,56130010,15minute,1986-01-01,2025-07-28,55.64977661,-2.256597919,21099.0,Leet Water,113.0,12.1849,True,True
36866,Eyemouth Mill,277179,Tweed,SG,Level,56162010,15minute,1967-09-27,2025-07-28,55.8651192,-2.095026904,20921.0,Eye Water,119.0,2.9161,True,True
37210,Charr,277151,Dee (Aberdeenshire),SG,Level,57072010,15minute,1991-01-01,2021-04-01,56.94084906,-2.619402267,21453.0,Water of Dye,41.7,237.0,True,True
37246,Cullen,277168,Deveron Group,SG,Level,57240010,15minute,1991-01-29,2025-07-28,57.68712295,-2.83323079,20739.0,Burn of Deskford,46.5,7.368,True,True
37262,Dosmucheran,277156,Conon Group,SG,Level,57306010,15minute,1989-11-01,2025-07-28,57.59587318,-5.005770119,20717.0,Bran,116.1,118.59,True,True
37290,Feshie Bridge,277150,Spey,SG,Level,57411010,15minute,1992-12-15,2025-07-28,57.11889938,-3.901082854,20929.0,Feshie,231.0,231.831,True,True
36756,Kingledores,277179,Tweed,SG,Level,55717010,15minute,1986-01-01,2025-07-28,55.54240926,-3.413947163,21431.0,Tweed,139.0,213.7318,True,True
36790,Gordon Arms,277179,Tweed,SG,Level,55863010,15minute,1986-01-01,2025-07-28,55.51137227,-3.096406906,21487.0,Yarrow Water,155.0,225.837,True,True
36848,Ormiston Mill,277179,Tweed,SG,Level,56098010,15minute,1990-01-01,2025-07-28,55.54491924,-2.473314492,21405.0,Teviot,1110.0,43.1994,True,True
36870,Abbey St Bathans,277179,Tweed,SG,Level,56178010,15minute,2001-04-01,2025-07-28,55.85329633,-2.387448356,21483.0,Whiteadder Water,216.25,143.0484,True,True
37148,Apigill,277189,Naver group,SG,Level,56811010,15minute,1977-06-10,2025-07-28,58.48007214,-4.207749187,21249.0,Naver,477.0,5.165,True,True
37182,Alford,277185,Don (Aberdeenshire),SG,Level,56957010,15minute,1973-04-23,2025-07-28,57.24230294,-2.717123004,20841.0,Don,499.0,133.154,True,True
37192,Brodie,277148,Findhorn Group,SG,Level,56989010,15minute,2005-01-01,2025-07-28,57.59244808,-3.708878989,21241.0,Muckle Burn,77.7,21.194,True,True
37232,Craigard,277153,Ness,SG,Level,57174010,15minute,1997-04-28,2025-07-28,57.06557358,-4.822135914,20971.0,Garry (Ness),399.0,49.322,True,True
36826,Teviothead,277179,Tweed,SG,Level,56000010,15minute,2003-06-10,2025-07-28,55.34222734,-2.936481216,21405.0,Teviot,53.25,163.205,True,True
36880,Broxmouth,277172,Tyne (Lothian),SG,Level,56219010,15minute,1998-04-16,2021-10-01,55.99077195,-2.48676507,20729.0,Brox Burn (East Lothian),19.7,8.85,True,True
37156,Ardachy Bridge,277153,Ness,SG,Level,56843010,15minute,1993-01-01,2025-07-28,57.12952381,-4.678200965,21393.0,Tarff,75.9,33.064,True,True
37258,Diriebught House,277153,Ness,SG,Level,57281010,15minute,1998-09-11,2025-07-28,57.47804173,-4.207153032,21213.0,Mill Burn,9.22,11.202,True,True
37272,Durkadale,277184,Orkneys,SG,Level,57347010,15minute,1999-08-05,2025-07-28,59.10852817,-3.232172832,20869.0,Durkadale Burn,19.0,32.279,True,True
37298,Forres,277148,Findhorn Group,SG,Level,57443010,15minute,1958-06-19,2025-07-28,57.60477145,-3.644084919,20937.0,Findhorn,781.9,9.531,True,True
36308,Fiddlers Ford,277162,Nith,SG,Level,53891010,15minute,1963-10-07,2025-07-28,55.09849668,-3.680572053,20777.0,Cluden Water,238.0,23.266,True,True
36316,Glenlochar,277161,Dee (Galloway),SG,Level,53923010,15minute,1988-01-01,2025-07-28,54.95554151,-3.979143444,20823.0,Dee (Solway),809.0,42.641,True,True
36330,Hall Bridge,277162,Nith,SG,Level,53980010,15minute,1988-01-01,2025-07-28,55.39297897,-4.079109518,21267.0,Nith,155.0,172.991,True,True
36338,Low Malzie,277164,Cree,SG,Level,54012010,15minute,1988-01-01,2025-07-28,54.85901864,-4.522077924,20697.0,Bladnoch,334.0,11.323,True,True
36346,Mossknowe,277180,Esk (Dumfriesshire),SG,Level,54044010,15minute,1988-01-01,2025-07-28,55.01280562,-3.119586538,21077.0,Kirtle Water,72.0,20.597,True,True
36374,White Laggan,277161,Dee (Galloway),SG,Level,54156010,15minute,1988-01-01,2025-07-27,55.07382387,-4.401198238,21479.0,White Laggan,5.7,226.259,True,True
36424,Liberton,277173,Almond Group,SG,Level,54359010,15minute,1992-06-01,2025-07-28,55.92458009,-3.165787507,20715.0,Braid Burn,16.2,49.93,True,True
36612,Strathmiglo,277177,Firth of Tay Group,SG,Level,55132010,15minute,1991-01-01,2025-07-28,56.27758355,-3.253078016,20895.0,Eden (Fife),26.0,47.8,True,True
36744,Aberuthven,277178,Earn,SG,Level,55669010,15minute,1991-01-01,2025-07-28,56.31968188,-3.658685969,21325.0,Ruthven Water,50.0,25.2,True,True
37314,Grantown,277150,Spey,SG,Level,57507010,15minute,1987-10-05,2025-07-28,57.32177064,-3.606725707,21371.0,Spey,1748.8,192.38,True,True
37340,Inverbervie,277176,Esk Group,SG,Level,57613010,15minute,1979-08-16,2025-07-28,56.85144056,-2.286119413,20677.0,Bervie,123.0,6.72,True,True
37360,Inverugie,277149,Ythan Group,SG,Level,57693010,15minute,1971-01-29,2025-07-28,57.52669115,-1.832792272,21437.0,Ugie,325.0,8.5,True,True
37434,Ness-side,277153,Ness,SG,Level,57992010,15minute,1972-09-06,2025-07-28,57.4545366,-4.259846808,21251.0,Ness,1839.1,6.807,True,True
35956,Lower Monachyle,277167,Forth,SG,Level,52438010,15minute,2003-11-04,2025-06-24,56.37472206,-4.4712587,,,7.7,306.2,False,True
36284,Canonbie,277180,Esk (Dumfriesshire),SG,Level,53795010,15minute,1988-01-01,2025-07-28,55.0662645,-2.946231369,20911.0,Esk (Solway),495.0,22.066,True,True
36358,Redhall,277158,Annan,SG,Level,54092010,15minute,1988-01-01,2025-07-28,55.16743102,-3.450205295,21069.0,Kinnel Water,76.1,53.302,True,True
36416,Dalmore,277173,Almond Group,SG,Level,54327010,15minute,1992-06-01,2025-07-28,55.84190258,-3.195905294,21275.0,North Esk (Lothian),81.6,132.12,True,True
36646,Mill Bank,277175,Tay,SG,Level,55269010,15minute,1970-06-26,2025-07-28,56.54503404,-3.333677733,21187.0,Lunan Burn,94.0,38.0,True,True
37302,Garve,277156,Conon Group,SG,Level,57459010,15minute,1989-10-18,2025-07-28,57.61669586,-4.688028816,20693.0,Blackwater,289.0,68.57,True,True
37356,Invertruim,277150,Spey,SG,Level,57677010,15minute,1987-02-18,2025-07-28,57.04053804,-4.164639706,21371.0,Spey,400.4,242.552,True,True
37418,Mill of Tore,277153,Ness,SG,Level,57928010,15minute,1979-12-13,2025-07-28,57.33389585,-4.575831167,20905.0,Enrick,105.9,109.437,True,True
37438,New Kelso,277186,Loch Alsh Group,SG,Level,58017010,15minute,1978-11-09,2025-07-28,57.42953514,-5.429999168,20769.0,Carron (Wester Ross),137.8,4.81,True,True
37444,Newhall Bridge,277156,Conon Group,SG,Level,58033010,15minute,1996-08-27,2025-07-28,57.65781737,-4.17662641,21259.0,Newhall Burn,41.0,5.53,True,True
37456,Pitcaple,277185,Don (Aberdeenshire),SG,Level,58081010,15minute,1988-01-01,2025-07-28,57.32351879,-2.464869508,21445.0,Urie,198.0,67.07,True,True
37488,Sgodachail,277188,Shin Group,SG,Level,58220010,15minute,1973-11-13,2025-07-28,57.89327664,-4.546976399,20767.0,Carron (Sutherland),241.1,70.74,True,True
37494,Shenachie,277148,Findhorn Group,SG,Level,58236010,15minute,1960-08-13,2025-07-28,57.37739614,-3.954996467,20937.0,Findhorn,415.6,252.372,True,True
37582,Aboyne,277151,Dee (Aberdeenshire),SG,Level,58550010,15minute,2003-03-07,2024-10-11,57.07726163,-2.771636889,21395.0,Tarland Burn,71.6,117.008,True,True
36276,Bridgemuir,277158,Annan,SG,Level,53763010,15minute,1988-01-01,2025-07-28,55.14632871,-3.428225271,21069.0,Kinnel Water,229.0,44.884,True,True
36288,Capenoch,277162,Nith,SG,Level,53811010,15minute,1988-01-01,2025-07-28,55.22736754,-3.817044727,21333.0,Scar Water,142.0,48.653,True,True
36334,Loch Dee Outlet,277161,Dee (Galloway),SG,Level,53996010,15minute,1988-01-01,2025-07-28,55.08809918,-4.386053697,20695.0,Blackwater of Dee,15.6,225.013,True,True
36386,Dow Craig,277162,Nith,SG,Level,54204010,15minute,1991-04-01,2024-10-17,55.37721095,-4.306229017,20673.0,Beoch Lane,9.0,234.6,True,True
37170,Balnaan,277150,Spey,SG,Level,56900010,15minute,1952-10-16,2025-07-28,57.30214571,-3.699157201,20855.0,Dulnain,272.2,223.598,True,True
37306,Glenmeanie,277156,Conon Group,SG,Level,57475010,15minute,1986-01-01,2025-07-28,57.53261438,-4.863772899,21207.0,Meig,120.5,120.72,True,True
37318,Halkirk,277195,Thurso Group,SG,Level,57532010,15minute,1971-03-27,2025-07-28,58.5154974,-3.493004244,21407.0,Thurso,412.8,30.195,True,True
37364,Kerrow Wood,277155,Beauly,SG,Level,57709010,15minute,1988-10-01,2025-07-28,57.34937628,-4.736427892,20989.0,Glass,481.8,52.89,True,True
37414,Mar Lodge,277151,Dee (Aberdeenshire),SG,Level,57912010,15minute,1982-09-10,2025-07-28,56.98804049,-3.486197825,20821.0,Dee (Grampian),289.0,331.9,True,True
37480,Redcraig,277168,Deveron Group,SG,Level,58179010,15minute,1980-12-01,2025-07-28,57.42475756,-2.802015318,20703.0,Bogie,179.0,120.111,True,True
36292,Dalbeattie,277161,Dee (Galloway),SG,Level,53827010,15minute,1988-01-01,2025-07-28,54.92987759,-3.840969588,21447.0,Urr Water,199.0,4.011,True,True
36312,Friars Carse,277162,Nith,SG,Level,53907010,15minute,1957-06-28,2025-07-28,55.14868484,-3.690747738,21267.0,Nith,799.0,19.876,True,True
36326,Greensands,277162,Nith,SG,Level,53964010,15minute,1992-01-02,2025-07-27,55.06942626,-3.617944341,21267.0,Nith,1110.0,5.915,True,True
36382,Woodfoot,277158,Annan,SG,Level,54188010,15minute,1988-01-01,2025-07-28,55.29395422,-3.41903487,20609.0,Annan,217.0,82.347,True,True
36400,Murrayfield,277173,Almond Group,SG,Level,54261010,15minute,1992-06-01,2025-07-28,55.94563152,-3.237786767,21459.0,Water of Leith,107.0,37.38,True,True
36412,Spilmersford,277172,Tyne (Lothian),SG,Level,54311010,15minute,1992-06-21,2025-07-28,55.9100322,-2.871497598,21433.0,Tyne,161.0,69.06,True,True
36796,Philiphaugh,277179,Tweed,SG,Level,55879010,15minute,1986-01-01,2025-07-28,55.53980549,-2.890068293,21487.0,Yarrow Water,231.0,128.118,True,True
37310,Grange,277168,Deveron Group,SG,Level,57491010,15minute,1989-04-18,2025-07-28,57.54279921,-2.847774986,21039.0,Isla (Deveron),176.1,92.183,True,True
37328,Haughton,277185,Don (Aberdeenshire),SG,Level,57564010,15minute,1971-02-20,2025-07-28,57.27134676,-2.404963889,20841.0,Don,787.0,55.0,True,True
37332,Heugh Head,277151,Dee (Aberdeenshire),SG,Level,57581010,15minute,1985-01-14,2025-07-28,57.02524569,-2.517160888,20933.0,Feugh,229.0,69.0,True,True
37388,Laxford Bridge,277190,Laxford Group,SG,Level,57807010,15minute,2003-10-16,2025-07-28,58.37221983,-4.991457712,21093.0,Laxford,115.7,8.865,True,True
37430,Muiresk,277168,Deveron Group,SG,Level,57976010,15minute,1960-06-21,2025-07-28,57.53766592,-2.493533301,20825.0,Deveron,954.9,25.193,True,True
37476,Red Bridge,277155,Beauly,SG,Level,58163010,15minute,1991-08-01,2025-07-28,57.45461034,-4.494575811,20667.0,Beauly,905.0,5.924,True,True
37498,Sheriffmills,277148,Findhorn Group,SG,Level,58252010,15minute,1990-03-28,2025-07-28,57.64636934,-3.351933142,21177.0,Lossie,216.0,17.695,True,True
36280,Brydekirk,277158,Annan,SG,Level,53779010,15minute,1988-01-01,2025-07-28,55.02165102,-3.267726412,20609.0,Annan,925.0,10.0,True,True
36300,Dargall Lane,277161,Dee (Galloway),SG,Level,53859010,15minute,1987-01-01,2025-07-27,55.0785507,-4.428445527,20815.0,Dargall Lane,2.13,254.691,True,True
36320,Green Burn,277161,Dee (Galloway),SG,Level,53948010,15minute,1988-01-01,2025-07-01,55.0828864,-4.381888551,21001.0,Green Burn,2.57,229.032,True,True
36350,Newcastleton,277180,Esk (Dumfriesshire),SG,Level,54060010,15minute,1993-04-01,2025-07-28,55.17647238,-2.81316152,21115.0,Liddel Water,206.0,93.641,True,True
36362,Rowanburnfoot,277180,Esk (Dumfriesshire),SG,Level,54108010,15minute,1988-01-01,2025-07-28,55.07463868,-2.918221754,21115.0,Liddel Water,319.0,26.996,True,True
36390,Luffness,277172,Tyne (Lothian),SG,Level,54229010,15minute,1992-10-01,2025-07-28,56.02022484,-2.821888561,21299.0,Peffer Burn (West),26.2,4.15,True,True
36420,Lennoxlove,277172,Tyne (Lothian),SG,Level,54343010,15minute,1992-05-30,2025-07-28,55.93584934,-2.784195821,20983.0,Gifford Water,64.0,51.36,True,True
37348,Invergairn,277151,Dee (Aberdeenshire),SG,Level,57645010,15minute,1990-01-19,2025-07-28,57.05992614,-3.069535364,20963.0,Gairn,150.0,217.71,True,True
37352,Invermuick,277151,Dee (Aberdeenshire),SG,Level,57661010,15minute,1990-01-17,2025-07-28,57.03951544,-3.049304978,21243.0,Muick,110.0,200.7,True,True
37448,Park,277151,Dee (Aberdeenshire),SG,Level,58049010,15minute,1972-10-11,2025-07-28,57.075424,-2.335825098,20821.0,Dee (Grampian),1844.0,22.59,True,True
37466,Polloch,277181,Loch Sheil Group,SG,Level,58131010,15minute,1986-05-01,2025-07-28,56.75844885,-5.613663683,20587.0,Allt Coire nan Con,7.9,7.826,True,True
37472,Poolewe,277187,Loch Maree group,SG,Level,58147010,15minute,1972-01-01,2025-07-28,57.76144201,-5.599076889,20917.0,Ewe,441.1,4.61,True,True
37502,Shielfoot,277186,Loch Alsh Group,SG,Level,58268010,15minute,1995-08-01,2025-07-28,56.76454538,-5.820892452,21339.0,Shiel,256.0,2.344,True,True
37506,Skeabost,277166,Inner Hebrides,SG,Level,58284010,15minute,2001-02-22,2025-07-28,57.45437017,-6.311235369,21345.0,Snizort,80.55,2.58,True,True
36342,Minnoch Bridge,277164,Cree,SG,Level,54028010,15minute,1988-01-01,2025-07-28,55.03887143,-4.563503023,21465.0,Water of Minnoch,141.0,27.859,True,True
36378,Whitesands,277162,Nith,SG,Level,54172010,15minute,1990-12-22,2025-07-28,55.06536955,-3.610749368,21267.0,Nith,1112.0,3.275,True,True
36396,Craigiehall,277173,Almond Group,SG,Level,54245010,15minute,1992-06-01,2025-07-28,55.96313343,-3.338532726,20601.0,Almond (Lothian),369.0,22.86,True,True
36408,East Linton,277172,Tyne (Lothian),SG,Level,54295010,15minute,1992-06-21,2025-07-28,55.98249658,-2.657198972,21433.0,Tyne,307.0,16.47,True,True
37392,Levishie,277153,Ness,SG,Level,57823010,15minute,1994-03-01,2025-07-28,57.22003826,-4.647834071,21235.0,Moriston,403.1,42.23,True,True
37406,Loch Flemington,277153,Ness,SG,Level,57880010,15minute,1976-04-01,2025-07-27,57.54236344,-3.993033026,21139.0,Loch Flemington,2.8,47.0,True,True
37460,Polhollick,277151,Dee (Aberdeenshire),SG,Level,58106010,15minute,1975-06-19,2025-07-28,57.05514629,-3.083180673,20821.0,Dee (Grampian),690.0,216.67,True,True
37484,Rosehall,277188,Shin Group,SG,Level,58195010,15minute,1979-10-16,2025-07-28,57.98210062,-4.586149187,20773.0,Cassley,187.5,3.28,True,True
37520,Strathpeffer,277156,Conon Group,SG,Level,58334010,15minute,1995-11-20,2025-07-28,57.59297854,-4.523041423,21301.0,Peffery,15.89,30.75,True,True
36120,Inverlochy,277169,Awe and Etive,SG,Level,53109010,15minute,1978-10-01,2025-07-27,56.40496092,-4.923669812,21171.0,Lochy (Argyll),47.7,51.7,True,True
36370,Waterhead,277162,Nith,SG,Level,54140010,15minute,1991-04-01,2024-10-17,55.37439338,-4.304549757,21267.0,Nith,11.8,229.9,True,True
36702,Killiecrankie,277175,Tay,SG,Level,55497010,15minute,1990-11-27,2025-07-28,56.75025399,-3.79910265,20973.0,Garry (Tayside),745.0,111.0,True,True
37324,Halladale,277189,Naver group,SG,Level,57548010,15minute,1974-08-28,2025-07-28,58.47881083,-3.90301916,21015.0,Halladale,204.6,23.156,True,True
37374,Kilphedir,277182,Helmsdale Group,SG,Level,57759010,15minute,1974-06-21,2025-07-28,58.14138911,-3.702814019,21019.0,Helmsdale,551.4,17.384,True,True
37402,Littlemill,277151,Dee (Aberdeenshire),SG,Level,57864010,15minute,1993-01-01,2024-08-30,57.04544067,-3.118285636,20985.0,Girnock Burn,30.3,245.38,True,True
37514,Spey Dam,277150,Spey,SG,Level,58318010,15minute,1992-01-01,2025-07-27,57.01121062,-4.336367491,21371.0,Spey,176.0,263.37,True,True
36296,Dalgig,277162,Nith,SG,Level,53843010,15minute,1991-04-01,2025-07-28,55.38782272,-4.277163013,21267.0,Nith,27.9,215.0,True,True
36304,Drumlanrig,277162,Nith,SG,Level,53875010,15minute,1967-05-24,2025-07-28,55.27462204,-3.799524299,21267.0,Nith,471.0,52.812,True,True
36354,Newton Stewart,277164,Cree,SG,Level,54076010,15minute,1963-04-25,2025-07-28,54.95726338,-4.480525846,20801.0,Cree,368.0,4.695,True,True
36366,Rusko,277164,Cree,SG,Level,54124010,15minute,1988-05-01,2025-07-28,54.90579321,-4.197617244,21455.0,Water of Fleet,77.0,7.6,True,True
36404,Almondell,277173,Almond Group,SG,Level,54278010,15minute,1992-06-01,2025-07-28,55.90181846,-3.463017734,20601.0,Almond (Lothian),229.0,73.55,True,True
37336,Inveran,277188,Shin Group,SG,Level,57597010,15minute,1981-07-09,2021-01-25,57.94318903,-4.410383325,21341.0,Shin,575.0,4.28,True,True
37344,Inverbroom,277190,Laxford Group,SG,Level,57629010,15minute,1985-01-18,2025-07-28,57.81047099,-5.058237756,20723.0,Broom,141.4,4.62,True,True
37368,Killilan,277186,Loch Alsh Group,SG,Level,57734010,15minute,2002-06-11,2025-07-28,57.31881832,-5.424835603,21117.0,Ling,131.9,2.0,True,True
37380,Kincraig,277150,Spey,SG,Level,57775010,15minute,1952-10-16,2025-07-28,57.12680642,-3.92521234,21371.0,Spey,764.3,218.525,True,True
37384,Kinrara,277150,Spey,SG,Level,57791010,15minute,1987-09-24,2025-07-28,57.15134199,-3.85017621,21371.0,Spey,1011.7,210.355,True,True
37396,Little Assynt,277190,Laxford Group,SG,Level,57848010,15minute,1977-04-01,2025-07-28,58.17438109,-5.152302768,21027.0,Inver,137.5,60.26,True,True
37410,Loch Naver,277189,Naver group,SG,Level,57896010,15minute,1993-12-23,2025-07-28,58.28571328,-4.389718176,21151.0,Loch Naver,235.6,70.0,True,True
37422,Minmore,277150,Spey,SG,Level,57944010,15minute,1989-06-06,2025-07-28,57.34451357,-3.328222906,21127.0,Livet,104.0,214.985,True,True
37426,Moy Bridge,277156,Conon Group,SG,Level,57960010,15minute,1975-12-22,2025-07-28,57.55657789,-4.539965573,20791.0,Conon,961.8,10.03,True,True
37452,Parkhill,277185,Don (Aberdeenshire),SG,Level,58065010,15minute,1988-12-22,2025-07-28,57.21832146,-2.187586406,20841.0,Don,1273.0,32.44,True,True
37542,Tromie Bridge,277150,Spey,SG,Level,58425010,15minute,1989-03-07,2025-07-28,57.0717185,-3.998638147,21427.0,Tromie,130.3,239.622,True,True
37552,Wardend Bridge,277148,Findhorn Group,SG,Level,58466010,15minute,1998-10-26,2025-07-28,57.58239454,-3.608335401,21237.0,Mosset Burn,28.3,40.889,True,True
37534,Tarroul,277192,Wick Group,SG,Level,58391010,15minute,1995-11-09,2025-07-28,58.47619579,-3.267060495,21485.0,Wick,161.9,11.046,True,True
37558,Woodend,277151,Dee (Aberdeenshire),SG,Level,58482010,15minute,1972-09-19,2025-07-28,57.0501291,-2.603567118,20821.0,Dee (Grampian),1370.0,70.49,True,True
36564,Balmossie,277177,Firth of Tay Group,SG,Level,54938010,15minute,1990-10-04,2025-07-28,56.48175497,-2.85166534,20829.0,Dighty Water,127.0,16.2,True,True
37524,Strathy Bridge,277189,Naver group,SG,Level,58359010,15minute,1985-10-17,2025-07-28,58.55872143,-4.002604762,21387.0,Strathy,111.8,4.475,True,True
37530,Struy,277155,Beauly,SG,Level,58375010,15minute,1986-10-01,2021-03-31,57.42569662,-4.682400374,20927.0,Farrar,311.3,51.17,True,True
37548,Dionard,277189,Naver group,SG,Level,58441010,15minute,2005-02-23,2025-07-28,58.49807306,-4.821196451,20833.0,Dionard,73.0,17.7,True,True
37562,Borgie Bridge,277189,Naver group,SG,Level,58498010,15minute,2007-10-26,2025-07-28,58.49740038,-4.279784356,20709.0,Borgie,138.8,20.839,True,True
37930,Garthdee,277151,Dee (Aberdeenshire),SG,Level,59580010,15minute,2008-12-03,2025-07-28,57.11882365,-2.124396574,20821.0,Dee (Grampian),2080.0,1.8,True,True
38066,Kinlochewe Lodge,277190,Laxford Group,SG,Level,60034010,15minute,2011-03-16,2025-07-28,57.60438272,-5.291673059,20559.0,Abhainn Bruachaig,101.16,27.2,True,True
38192,Wheeb Bridge,277164,Cree,SG,Level,60461010,15minute,2014-10-14,2025-07-28,55.09004091,-4.661771619,20801.0,Cree,60.72,142.299,True,True
37838,Loch Ailsh Level,277188,Shin Group,SG,Level,59261010,15minute,2007-04-26,2025-07-28,58.04827715,-4.855312073,21295.0,Oykel,44.3,154.3,True,True
37870,Laxdale,277183,Outer Hebrides,SG,Level,59393010,15minute,2007-10-24,2025-07-28,57.86865846,-6.893581696,21091.0,Laxdale,13.0,10.335,True,True
37962,Elphin,277190,Laxford Group,SG,Level,59711010,15minute,2008-06-13,2025-07-28,58.05185192,-5.03101345,20567.0,Abhainn a Chnocain,10.59,138.473,True,True
37974,Huntly GS,277168,Deveron Group,SG,Level,59752010,15minute,2009-03-29,2025-07-28,57.45498575,-2.807560217,20825.0,Deveron,255.6,117.469,True,True
37998,Athelstaneford,277172,Tyne (Lothian),SG,Level,59843010,15minute,2008-02-15,2021-10-01,55.9852479,-2.736326688,20781.0,Cogtail Burn,3.5,47.8,True,True
38110,Pluscarden Abbey,277148,Findhorn Group,SG,Level,60184010,15minute,2012-06-07,2025-07-28,57.59946107,-3.433170424,20683.0,Black Burn,46.0,53.953,True,True
38218,Unthank Bridge,277180,Esk (Dumfriesshire),SG,Level,60562010,15minute,2014-10-17,2025-07-28,55.24336243,-2.967499315,20919.0,Ewes Water,29.36,146.712,True,True
38222,Langholm Bridge,277180,Esk (Dumfriesshire),SG,Level,60578010,15minute,2015-06-29,2025-07-28,55.1521906,-3.000489189,20911.0,Esk (Solway),370.3,71.33,True,True
37594,Carron (Stonehaven),277176,Esk Group,SG,Level,58584010,15minute,2003-03-31,2025-07-28,56.96221164,-2.216208291,20771.0,Carron Water,37.0,6.977,True,True
37696,Inzion,277175,Tay,SG,Level,58868010,15minute,2005-12-06,2021-04-01,56.68930326,-3.177597556,21035.0,Inzion,24.7,211.1,True,True
37888,Rhidorroch,277190,Laxford Group,SG,Level,59457010,15minute,2007-09-11,2025-07-09,57.90929699,-5.117024011,21439.0,Ullapool,77.51,78.6,True,True
37958,Mill of Keithfield,277149,Ythan Group,SG,Level,59695010,15minute,2009-08-17,2025-03-26,57.39549598,-2.268170959,21051.0,Keithfield Burn,18.36,62.4,True,True
37982,Waterside Perth,277176,Esk Group,SG,Level,59786010,15minute,2009-08-11,2025-07-28,56.89929851,-2.820760629,21277.0,North Esk (Tayside),205.8,179.2,True,True
37610,Avonbank,277159,Clyde,SG,Level,58658010,15minute,2005-06-09,2025-07-28,55.66347112,-4.051617294,20641.0,Avon Water,143.0,150.5,True,True
37866,White Bridge,277153,Ness,SG,Level,59368010,15minute,2007-08-21,2025-07-28,57.33362742,-4.673089381,20905.0,Enrick,56.2,143.967,True,True
38090,Loakmill No 2,277175,Tay,SG,Level,60116010,15minute,2010-04-21,2025-07-28,56.49180756,-3.508004624,20975.0,Garry Burn,22.12,57.552,True,True
38178,Cleuchhead,277176,Esk Group,SG,Level,60427010,15minute,2014-04-16,2025-07-28,56.94774412,-2.388756894,20763.0,Carron,5.0,151.0,True,True
38210,Castle O'er,277180,Esk (Dumfriesshire),SG,Level,60537010,15minute,2014-06-25,2025-07-23,55.22290808,-3.180030664,21505.0,White Esk,127.79,156.595,True,True
37598,Brighouse Burn,277164,Cree,SG,Level,58600010,15minute,2005-07-20,2023-07-25,54.78864247,-4.117404209,20721.0,Brighouse Burn,6.32,3.438,True,True
37606,Howard Park,277165,Irvine and Ayr,SG,Level,58633010,15minute,2005-02-09,2025-07-28,55.60465827,-4.499004047,21063.0,Kilmarnock Water,74.0,20.821,True,True
37648,Glenfield,277165,Irvine and Ayr,SG,Level,58753010,15minute,1920-01-31,2025-07-28,55.60118281,-4.493559809,21037.0,Irvine,217.9,20.589,True,True
37850,Loch Tormasad,277183,Outer Hebrides,SG,Level,59311010,15minute,2007-06-11,2025-07-28,57.56195723,-7.316740973,21417.0,Tormasad,1.6,9.4,True,True
37856,Mill Croft,277183,Outer Hebrides,SG,Level,59336010,15minute,2007-11-05,2025-07-28,57.2886568,-7.368331541,20563.0,Abhainn Roag,13.91,5.466,True,True
37876,Craigendarroch,277181,Loch Sheil Group,SG,Level,59409010,15minute,2008-06-11,2025-07-28,56.56990238,-5.749845756,20579.0,Aline,103.8,3.663,True,True
37884,Loch A Bhraoin,277190,Laxford Group,SG,Level,59441010,15minute,2009-05-18,2025-07-28,57.72829261,-5.098319842,21129.0,Loch A Bhraoin,34.3,248.1,True,True
37934,Ladyflat Farm,277179,Tweed,SG,Level,59605010,15minute,2008-04-17,2025-07-28,55.75636712,-2.369501202,20649.0,Back Burn (Borders),3.98,105.4632,True,True
37940,Glenbreck,277179,Tweed,SG,Level,59631010,15minute,2008-10-10,2024-06-20,55.48202196,-3.477754728,21431.0,Tweed,36.22,279.1421,True,True
37988,Inveriscandye,277176,Esk Group,SG,Level,59802010,15minute,2009-09-10,2025-07-28,56.79987798,-2.626620926,21277.0,North Esk (Tayside),312.6,39.9,True,True
38038,Kirktown of Fetteresso,277176,Esk Group,SG,Level,59957010,15minute,2010-07-16,2025-05-07,56.96107386,-2.24381097,20771.0,Carron Water,30.9,29.413,True,True
38152,Kilbirnie,277165,Irvine and Ayr,SG,Level,60324010,15minute,2013-06-26,2025-07-28,55.75642821,-4.685378197,20969.0,Garnock,22.34,45.517,True,True
37822,Ivy Bridge,277153,Ness,SG,Level,59202010,15minute,2002-05-05,2025-07-28,57.31837309,-4.497591991,20783.0,Coilte,45.77,70.771,True,True
37844,Langwell Lodge,277190,Laxford Group,SG,Level,59286010,15minute,2006-12-28,2025-07-28,57.9748238,-5.100589967,20755.0,Canaird,30.9,28.3,True,True
37950,Burrelton Burn,277167,Forth,SG,Level,59663010,15minute,2008-12-10,2021-03-26,56.5211801,-3.294527587,20747.0,Burrelton Burn,13.33,57.0,True,True
37992,Murray Burn,277172,Tyne (Lothian),SG,Level,59827010,15minute,2008-02-14,2025-07-28,55.91287677,-3.317681386,21245.0,Murray Burn,5.48,79.1,True,True
37602,Abington,277159,Clyde,SG,Level,58616010,15minute,2004-11-03,2025-07-28,55.48691533,-3.69056827,20779.0,Clyde,252.0,232.335,True,True
37862,Inveroykel Bailey Bridge,277188,Shin Group,SG,Level,59352010,15minute,2007-04-27,2025-07-28,57.97362007,-4.604090887,21295.0,Oykel,382.12,1.322,True,True
37970,Allt a' Ghlas-charnaich,277156,Conon Group,SG,Level,59736010,15minute,2008-08-06,2025-07-28,57.70934072,-4.836082499,20595.0,Allt a Ghlas-chamaich,1.74,259.3,True,True
38018,Lagganbeg,277163,Leven (Durnbartonshire),SG,Level,59909010,15minute,2009-07-10,2025-07-28,56.05128388,-4.52729393,20555.0,Aber Burn,4.09,17.2,True,True
38042,Craigforth,277167,Forth,SG,Level,59973010,15minute,1992-06-21,2025-07-28,56.1360998,-3.970218251,20955.0,Forth,1036.0,3.67,True,True
37620,Irvine Waterside,277165,Irvine and Ayr,SG,Level,58683010,15minute,2007-01-29,2025-07-28,55.61682305,-4.674740715,21037.0,Irvine,477.92,0.852,True,True
38014,Faich Bhiorach,277187,Loch Maree group,SG,Level,59893010,15minute,2011-01-13,2025-07-28,57.69020841,-5.660695458,21057.0,Kerry,42.33,26.0,True,True
38394,Limmerhaugh,277165,Irvine and Ayr,SG,Level,61189010,15minute,2017-10-26,2025-07-28,55.51674252,-4.189197017,20647.0,Ayr,126.34,168.711,True,True
38402,Duchray Water,277167,Forth,SG,Level,61214010,15minute,2015-02-11,2025-07-28,56.19275854,-4.564061145,20851.0,Duchray Water,22.31,142.32,True,True
38414,Loch Ard,277167,Forth,SG,Level,61262010,15minute,2018-06-20,2025-07-28,56.18379617,-4.422949664,,,41.01,30.972,False,True
38492,Hermitage,277175,Tay,SG,Level,61541010,15minute,1970-06-26,2025-07-28,56.5609809,-3.607201681,20713.0,Braan,210.0,52.6,True,True
38500,Galashiels,277179,Tweed,SG,Level,61573010,15minute,1963-10-01,2025-07-28,55.62706185,-2.827709454,20965.0,Gala Water,207.0,120.472,True,True
477389,Loch Venachar,277167,Forth,SG,Level,66521010,15minute,1992-09-15,2025-07-28,56.23425763,-4.25686637,20881.0,Eas Gobhain,202.0,98.91,True,True
38010,Erchless,277155,Beauly,SG,Level,59877010,15minute,2009-01-15,2025-07-28,57.42804453,-4.623845183,20667.0,Beauly,857.0,43.891,True,True
38278,Quinloch Bridge,277163,Leven (Durnbartonshire),SG,Level,60792010,15minute,2015-07-07,2025-07-28,56.00926669,-4.375847831,20699.0,Blane Water,90.88,20.635,True,True
38354,Inverlaidnan Bridge,277150,Spey,SG,Level,61035010,15minute,2017-02-20,2025-07-28,57.26705143,-3.883273172,20855.0,Dulnain,150.0,295.557,True,True
38444,Carron upstream (Stonehaven),277176,Esk Group,SG,Level,61377010,15minute,2019-01-16,2024-08-22,56.96155865,-2.219756428,20763.0,Carron,37.0,5.0,True,True
38496,Norham,277179,Tweed,SG,Level,61557010,15minute,1959-06-17,2025-07-28,55.72229365,-2.163435109,21431.0,Tweed,4390.0,2.8796,True,True
38336,Crimmonmogate,277149,Ythan Group,SG,Level,60971010,15minute,2007-06-12,2021-02-08,57.61852769,-1.928524204,21331.0,Savoch Burn,32.74,9.0,True,True
279917,Craig Douglas,277179,Tweed,SG,Level,65244010,15minute,1989-01-01,2025-07-28,55.5086,-3.1265,21487.0,Yarrow Water,116.0,238.933,True,True
459053,Loch Katrine,277167,Forth,SG,Level,66387010,15minute,1993-09-29,2025-07-28,56.22701614,-4.43624573,20573.0,Achray Water,94.0,100.0,True,True
38410,Renagour Bridge,277167,Forth,SG,Level,61246010,15minute,2015-02-11,2025-07-28,56.17693404,-4.418601789,20851.0,Duchray Water,69.78,20.877,True,True
38484,Musselburgh,277173,Almond Group,SG,Level,61509010,15minute,1992-06-01,2025-07-28,55.93950941,-3.060909073,20909.0,Esk (Lothian),330.0,3.29,True,True
279903,Hutton Castle,277179,Tweed,SG,Level,65228010,15minute,1970-01-01,2025-07-28,55.7889,-2.1917,21483.0,Whiteadder Water,503.0,28.956,True,True
38270,Ballachraggan,277148,Findhorn Group,SG,Level,60767010,15minute,2015-05-27,2025-07-28,57.52824441,-3.451567365,21177.0,Lossie,20.0,181.899,True,True
38290,Graystone Bridge,277163,Leven (Durnbartonshire),SG,Level,60824010,15minute,2015-10-08,2025-07-28,56.0675405,-4.282616591,20903.0,Endrick Water,74.71,0.0,True,True
38328,Kelly Den - Arbilot,277177,Firth of Tay Group,SG,Level,60939010,15minute,2017-01-24,2024-07-16,56.55248062,-2.640451372,20901.0,Elliot Water,35.06,30.0,True,True
38332,Sterling Mills Gauging Station,277167,Forth,SG,Level,60955010,15minute,2016-01-11,2025-07-28,56.14812902,-3.738809826,20827.0,Devon,140.85,15.541,True,True
37830,Stobs Castle,277179,Tweed,SG,Level,59227010,15minute,2008-06-05,2025-07-28,55.38179195,-2.780516606,21343.0,Slitrig,57.5,148.738,True,True
38382,Cunninghamhead,277165,Irvine and Ayr,SG,Level,61148010,15minute,2017-08-29,2025-07-28,55.64794589,-4.584018331,20611.0,Annick Water,81.1,37.111,True,True
38390,Chapeltoun Gauging Station,277165,Irvine and Ayr,SG,Level,61173010,15minute,2017-09-27,2025-07-28,55.6639264,-4.554890682,20611.0,Annick Water,45.6,57.699,True,True
38480,Cowbridge,277173,Almond Group,SG,Level,61493010,15minute,1992-06-01,2025-07-27,55.89709776,-3.05890347,21361.0,South Esk (Lothian),156.0,27.37,True,True
38488,Kenmore,277175,Tay,SG,Level,61525010,15minute,1991-01-02,2025-07-28,56.59638815,-3.985061725,21397.0,Tay,600.9,100.4,True,True
38340,Boleside,277179,Tweed,SG,Level,60996010,15minute,1986-01-01,2025-07-28,55.59164323,-2.798878774,21431.0,Tweed,1500.0,94.5346,True,True
38448,Logie Bridge,277148,Findhorn Group,SG,Level,61393010,15minute,2019-03-29,2025-07-28,57.49449251,-3.736619229,20937.0,Findhorn,550.0,109.485,True,True
